[
  {
    "name": "מגרש כדורסל גורדון",
    "address": "טיילת גורדון, תל אביב",
    "lat": 32.0847,
    "lng": 34.7694,
    "sport_types": ["basketball"],
    "city": "תל אביב",
    "notes": "מגרש ביץ' על שפת הים, גדר מסביב, תאורה"
  },
  {
    "name": "מגרש כדורסל פארק הירקון (מזרח)",
    "address": "פארק הירקון, תל אביב",
    "lat": 32.1013,
    "lng": 34.7940,
    "sport_types": ["basketball"],
    "city": "תל אביב",
    "notes": "מגרש אספלט, 2 סלים, ציבורי"
  },
  {
    "name": "מגרש כדורסל פארק הירקון (מערב)",
    "address": "פארק הירקון מערב, תל אביב",
    "lat": 32.1005,
    "lng": 34.7860,
    "sport_types": ["basketball"],
    "city": "תל אביב",
    "notes": "קרוב לנחל ירקון, ציבורי"
  },
  {
    "name": "מגרש כדורסל גן מאיר",
    "address": "גן מאיר, רחוב קינג ג'ורג', תל אביב",
    "lat": 32.0743,
    "lng": 34.7789,
    "sport_types": ["basketball"],
    "city": "תל אביב",
    "notes": "לב העיר, פתוח 24 שעות"
  },
  {
    "name": "מגרש כדורסל שרונה מרקט",
    "address": "מתחם שרונה, תל אביב",
    "lat": 32.0721,
    "lng": 34.7901,
    "sport_types": ["basketball"],
    "city": "תל אביב",
    "notes": "מגרש חדש, משטח גומי"
  },
  {
    "name": "מגרש כדורסל רמת אביב ג'",
    "address": "רחוב אינשטיין, רמת אביב, תל אביב",
    "lat": 32.1097,
    "lng": 34.8044,
    "sport_types": ["basketball"],
    "city": "תל אביב",
    "notes": "שכונת רמת אביב, קרוב לאוניברסיטה"
  },
  {
    "name": "מגרש כדורסל פלורנטין",
    "address": "פלורנטין, תל אביב",
    "lat": 32.0589,
    "lng": 34.7736,
    "sport_types": ["basketball"],
    "city": "תל אביב",
    "notes": "שכונת פלורנטין, ציבורי"
  },
  {
    "name": "מגרש כדורסל נמל תל אביב",
    "address": "נמל תל אביב, תל אביב",
    "lat": 32.0972,
    "lng": 34.7736,
    "sport_types": ["basketball"],
    "city": "תל אביב",
    "notes": "ליד הנמל, נוף לים"
  },
  {
    "name": "כדורגל פארק הירקון - מגרש ראשי",
    "address": "פארק הירקון, תל אביב",
    "lat": 32.1021,
    "lng": 34.7900,
    "sport_types": ["football"],
    "city": "תל אביב",
    "notes": "מגרש דשא, 11vs11, גדרות"
  },
  {
    "name": "כדורגל פארק הירקון - מגרש קטן",
    "address": "פארק הירקון מרכז, תל אביב",
    "lat": 32.1008,
    "lng": 34.7910,
    "sport_types": ["football"],
    "city": "תל אביב",
    "notes": "מגרש קטן, 7vs7"
  },
  {
    "name": "כדורגל גן העיר",
    "address": "גן העיר, רחוב אבן גבירול, תל אביב",
    "lat": 32.0803,
    "lng": 34.7801,
    "sport_types": ["football"],
    "city": "תל אביב",
    "notes": "ליד בניין העירייה"
  },
  {
    "name": "כדורגל יפו הישנה",
    "address": "יפו, תל אביב-יפו",
    "lat": 32.0486,
    "lng": 34.7530,
    "sport_types": ["football"],
    "city": "תל אביב",
    "notes": "יפו, מגרש עירוני"
  },
  {
    "name": "כדורגל נווה שאנן",
    "address": "נווה שאנן, תל אביב",
    "lat": 32.0560,
    "lng": 34.7763,
    "sport_types": ["football"],
    "city": "תל אביב",
    "notes": "שכונת נווה שאנן, תאורת לילה"
  },
  {
    "name": "כדורגל קרית שלום",
    "address": "קרית שלום, תל אביב",
    "lat": 32.0489,
    "lng": 34.7734,
    "sport_types": ["football"],
    "city": "תל אביב",
    "notes": "מגרש שכונתי"
  },
  {
    "name": "כדורגל רמת אביב",
    "address": "רמת אביב, תל אביב",
    "lat": 32.1080,
    "lng": 34.8010,
    "sport_types": ["football"],
    "city": "תל אביב",
    "notes": "שכונת רמת אביב, מגרש גדול"
  },
  {
    "name": "כדורגל נחלת יצחק",
    "address": "נחלת יצחק, תל אביב",
    "lat": 32.0667,
    "lng": 34.7913,
    "sport_types": ["football"],
    "city": "תל אביב",
    "notes": "אזור תעשייה, מגרש ממשלתי"
  },
  {
    "name": "מגרשי טניס פארק הירקון",
    "address": "פארק הירקון, ליד בית ליסין, תל אביב",
    "lat": 32.1003,
    "lng": 34.7875,
    "sport_types": ["tennis"],
    "city": "תל אביב",
    "notes": "8 מגרשים, השכרת מחבטים, ניהול עירוני"
  },
  {
    "name": "מגרשי טניס לב העיר",
    "address": "גן מאיר, תל אביב",
    "lat": 32.0756,
    "lng": 34.7797,
    "sport_types": ["tennis"],
    "city": "תל אביב",
    "notes": "4 מגרשים, דרוש הרשמה"
  },
  {
    "name": "מגרשי טניס נורדאו",
    "address": "שדרות נורדאו, תל אביב",
    "lat": 32.0903,
    "lng": 34.7773,
    "sport_types": ["tennis"],
    "city": "תל אביב",
    "notes": "מגרשים ציבוריים, 2 מגרשים"
  },
  {
    "name": "כדורעף חוף גורדון",
    "address": "חוף גורדון, תל אביב",
    "lat": 32.0850,
    "lng": 34.7686,
    "sport_types": ["volleyball"],
    "city": "תל אביב",
    "notes": "כדורעף חוף, חול, ציבורי"
  },
  {
    "name": "כדורעף חוף הצוק",
    "address": "חוף הצוק, תל אביב",
    "lat": 32.1041,
    "lng": 34.7671,
    "sport_types": ["volleyball"],
    "city": "תל אביב",
    "notes": "כדורעף ביץ', מגרשים מסומנים"
  },
  {
    "name": "כדורעף חוף נורדאו",
    "address": "חוף נורדאו, תל אביב",
    "lat": 32.0903,
    "lng": 34.7680,
    "sport_types": ["volleyball"],
    "city": "תל אביב",
    "notes": "3 מגרשי כדורעף ביץ'"
  }
]
